Branch_ID,Branch Name,Market,Region,Latitude,Longitude
B0001,City of London,Greater London,England,51.513329,-0.088950
B0002,"Money St, Dorset",South West,England,50.748764,-2.344479
B0003,Sussex Branch,South East,England,51.03,0.539
B0004,North Yorkshire,Yorkshire,England,53.722752,-0.506140
B0005,Wrexham,North Wales,Wales,53.04,-2.99
B0006,Cardiff,South Wales,Wales,51.48,-3.17
B0007,Victoria Street,Edinburgh,Scotland,55.94,-3.19
B0008,Aberdeen,North Scotland,Scotland,57.15,-2.094